% program   : RTKPOST ver.2.4.3 b33
% inp file  : C:\Users\Shimpei\Documents\RTKLIB\RTKLIB-2.4.3-modify\res_analyze\190717RHCP.obs
% inp file  : C:\Users\Shimpei\Documents\RTKLIB\RTKLIB-2.4.3-modify\res_analyze\190717RHCP.nav
% obs start : 2019/07/17 06:24:31.0 GPST (week2062 282271.0s)
% obs end   : 2019/07/17 07:24:39.0 GPST (week2062 285879.0s)
% pos mode  : single
% elev mask : 5.0 deg
% ionos opt : broadcast
% tropo opt : saastamoinen
% ephemeris : broadcast
% navi sys  : gps qzss
%
% (lat/lon/height=WGS84/ellipsoidal,Q=1:fix,2:float,3:sbas,4:dgps,5:single,6:ppp,ns=# of satellites)
%  GPST                  latitude(deg) longitude(deg)  height(m)   Q  ns   sdn(m)   sde(m)   sdu(m)  sdne(m)  sdeu(m)  sdun(m) age(s)  ratio
2019/07/17 06:24:31.000   34.546058730  135.504041351    66.3576   5   7   5.0065   6.9799   8.2259  -4.2497   5.6292  -2.0350   0.00    0.0
2019/07/17 06:24:32.000   34.546060851  135.504040874    66.7163   5   7   5.0072   6.9803   8.2250  -4.2505   5.6284  -2.0331   0.00    0.0
2019/07/17 06:24:33.000   34.546064275  135.504040032    66.4472   5   7   5.0080   6.9807   8.2242  -4.2512   5.6276  -2.0312   0.00    0.0
2019/07/17 06:24:45.000   34.546084418  135.504062424    73.9528   5   7   5.0171   6.9855   8.2143  -4.2604   5.6184  -2.0087   0.00    0.0
2019/07/17 06:24:46.000   34.546078443  135.504030382    69.5740   5   7   5.0179   6.9859   8.2135  -4.2611   5.6177  -2.0068   0.00    0.0
2019/07/17 06:25:44.000   34.546069338  135.504105201    80.2269   5   7   5.0629   7.0099   8.1668  -4.3063   5.5734  -1.8940   0.00    0.0
2019/07/17 06:26:53.000   34.545996034  135.504261516    78.8795   5   8   4.2357   5.9197   8.1120  -2.8424   5.5807  -1.8877   0.00    0.0
2019/07/17 06:27:40.000   34.546095041  135.503952434    63.0280   5   8   4.2648   5.9385   8.0759  -2.8797   5.5663  -1.8400   0.00    0.0
2019/07/17 06:27:41.000   34.546074199  135.503977417    62.0464   5   8   4.2655   5.9389   8.0751  -2.8805   5.5660  -1.8389   0.00    0.0
2019/07/17 06:27:42.000   34.546055840  135.504027237    63.4487   5   8   4.2661   5.9393   8.0743  -2.8813   5.5657  -1.8379   0.00    0.0
2019/07/17 06:27:43.000   34.546047053  135.504043528    63.1458   5   8   4.2667   5.9397   8.0736  -2.8821   5.5654  -1.8368   0.00    0.0
2019/07/17 06:29:44.000   34.545999899  135.504139891    69.4351   5   8   4.3452   5.9909   7.9845  -2.9823   5.5285  -1.7062   0.00    0.0
2019/07/17 06:29:45.000   34.545997395  135.504141221    69.4321   5   8   4.3459   5.9914   7.9838  -2.9832   5.5282  -1.7051   0.00    0.0
2019/07/17 06:29:47.000   34.545993432  135.504142640    69.6772   5   8   4.3472   5.9922   7.9824  -2.9849   5.5276  -1.7028   0.00    0.0
2019/07/17 06:29:48.000   34.545992889  135.504141949    69.6101   5   8   4.3479   5.9927   7.9817  -2.9858   5.5273  -1.7017   0.00    0.0
2019/07/17 06:29:50.000   34.545994037  135.504145839    69.6526   5   8   4.3492   5.9936   7.9802  -2.9875   5.5267  -1.6994   0.00    0.0
2019/07/17 06:29:51.000   34.545994495  135.504146510    69.4454   5   8   4.3499   5.9940   7.9795  -2.9883   5.5264  -1.6983   0.00    0.0
2019/07/17 06:30:03.000   34.546026776  135.504131727    73.0363   5   8   4.3580   5.9993   7.9710  -2.9986   5.5227  -1.6846   0.00    0.0
2019/07/17 06:30:05.000   34.546029807  135.504128110    72.9570   5   8   4.3593   6.0002   7.9696  -3.0003   5.5221  -1.6823   0.00    0.0
2019/07/17 06:30:06.000   34.546028957  135.504128498    72.9265   5   8   4.3600   6.0007   7.9689  -3.0012   5.5218  -1.6812   0.00    0.0
2019/07/17 06:30:07.000   34.546034219  135.504135169    74.0833   5   8   4.3607   6.0011   7.9682  -3.0021   5.5215  -1.6800   0.00    0.0
2019/07/17 06:30:19.000   34.546033353  135.504131889    73.7714   5   8   4.3688   6.0065   7.9597  -3.0125   5.5178  -1.6662   0.00    0.0
2019/07/17 06:30:32.000   34.546057156  135.504183524    83.4308   5   8   4.3777   6.0124   7.9506  -3.0238   5.5138  -1.6510   0.00    0.0
2019/07/17 06:30:45.000   34.546080790  135.504204678    89.0611   5   8   4.3867   6.0183   7.9416  -3.0352   5.5099  -1.6357   0.00    0.0
2019/07/17 06:30:58.000   34.546122174  135.504248472   100.3791   5   8   4.3957   6.0243   7.9326  -3.0466   5.5059  -1.6202   0.00    0.0
2019/07/17 06:31:00.000   34.546131812  135.504268024   103.4471   5   8   4.3970   6.0252   7.9313  -3.0484   5.5053  -1.6178   0.00    0.0
2019/07/17 06:31:02.000   34.546132122  135.504277881   105.0844   5   8   4.3984   6.0261   7.9299  -3.0502   5.5047  -1.6154   0.00    0.0
2019/07/17 06:31:15.000   34.546013984  135.503968664    52.9756   5   7   6.7789  13.6524  23.7216   7.3284  17.4388  10.6115   0.00    0.0
2019/07/17 06:31:16.000   34.546095725  135.504198045    91.2868   5   8   4.4082   6.0326   7.9203  -3.0626   5.5004  -1.5985   0.00    0.0
2019/07/17 06:31:18.000   34.546024072  135.503971607    54.0766   5   7   6.7861  13.6518  23.7252   7.3332  17.4392  10.6213   0.00    0.0
2019/07/17 06:31:32.000   34.546047381  135.504001036    60.6451   5   7   6.8198  13.6486  23.7416   7.3555  17.4408  10.6667   0.00    0.0
2019/07/17 06:31:33.000   34.546046690  135.503993750    59.3967   5   7   6.8222  13.6484  23.7427   7.3571  17.4409  10.6699   0.00    0.0
2019/07/17 06:31:46.000   34.546124562  135.504237645    98.6194   5   8   4.4294   6.0468   7.9001  -3.0896   5.4912  -1.5615   0.00    0.0
2019/07/17 06:32:00.000   34.546085593  135.504269371    97.3682   5   8   4.4394   6.0535   7.8907  -3.1023   5.4869  -1.5438   0.00    0.0
2019/07/17 06:32:16.000   34.546057571  135.504281325    94.6276   5   8   4.4509   6.0612   7.8801  -3.1169   5.4820  -1.5234   0.00    0.0
2019/07/17 06:32:18.000   34.546055862  135.504260004    91.2474   5   8   4.4523   6.0622   7.8788  -3.1188   5.4814  -1.5208   0.00    0.0
2019/07/17 06:32:34.000   34.546072642  135.504262784    91.9391   5   8   4.4639   6.0701   7.8683  -3.1335   5.4765  -1.5000   0.00    0.0
2019/07/17 06:32:36.000   34.546073209  135.504249940    90.3201   5   8   4.4654   6.0710   7.8670  -3.1354   5.4759  -1.4974   0.00    0.0
2019/07/17 06:32:38.000   34.546075183  135.504254474    91.3558   5   8   4.4668   6.0720   7.8657  -3.1372   5.4753  -1.4948   0.00    0.0
2019/07/17 06:32:51.000   34.546087866  135.504215481    89.9309   5   8   4.4763   6.0785   7.8573  -3.1493   5.4713  -1.4776   0.00    0.0
2019/07/17 06:32:53.000   34.546087725  135.504217962    90.1517   5   8   4.4778   6.0795   7.8560  -3.1512   5.4707  -1.4749   0.00    0.0
2019/07/17 06:32:55.000   34.546092333  135.504226808    92.2255   5   8   4.4793   6.0805   7.8547  -3.1531   5.4701  -1.4723   0.00    0.0
2019/07/17 06:32:57.000   34.546099852  135.504232640    93.2804   5   8   4.4808   6.0815   7.8534  -3.1550   5.4695  -1.4696   0.00    0.0
2019/07/17 06:33:10.000   34.545995741  135.504063068    58.6953   5   7   7.0595  13.6042  23.8315   7.4994  17.4254  10.9761   0.00    0.0
2019/07/17 06:33:37.000   34.546029517  135.504077231    67.3302   5   7   7.1264  13.5851  23.8485   7.5349  17.4129  11.0584   0.00    0.0
2019/07/17 06:33:38.000   34.546034373  135.504073963    67.3830   5   7   7.1289  13.5843  23.8490   7.5361  17.4123  11.0615   0.00    0.0
2019/07/17 06:33:40.000   34.546032985  135.504079710    67.3936   5   7   7.1339  13.5828  23.8501   7.5387  17.4113  11.0675   0.00    0.0
2019/07/17 06:33:42.000   34.546035179  135.504073107    67.0094   5   7   7.1388  13.5812  23.8512   7.5412  17.4102  11.0735   0.00    0.0
2019/07/17 06:33:55.000   34.546038511  135.504093812    67.3613   5   7   7.1712  13.5707  23.8579   7.5574  17.4025  11.1126   0.00    0.0
2019/07/17 06:33:57.000   34.546041189  135.504093738    67.3908   5   7   7.1761  13.5690  23.8588   7.5599  17.4012  11.1186   0.00    0.0
2019/07/17 06:34:13.000   34.546050009  135.504137513    72.7824   5   7   7.2160  13.5549  23.8657   7.5791  17.3905  11.1661   0.00    0.0
2019/07/17 06:34:14.000   34.546047592  135.504136624    72.4406   5   7   7.2185  13.5540  23.8661   7.5803  17.3898  11.1691   0.00    0.0
2019/07/17 06:34:15.000   34.546046718  135.504139720    72.8059   5   7   7.2210  13.5531  23.8665   7.5815  17.3890  11.1720   0.00    0.0
2019/07/17 06:34:16.000   34.546051885  135.504146039    74.2434   5   7   7.2235  13.5522  23.8669   7.5826  17.3883  11.1750   0.00    0.0
2019/07/17 06:34:57.000   34.546028293  135.504042461    62.1770   5   7   7.3262  13.5109  23.8783   7.6284  17.3542  11.2943   0.00    0.0
2019/07/17 06:35:01.000   34.546026319  135.504043644    62.6102   5   7   7.3363  13.5065  23.8790   7.6326  17.3505  11.3058   0.00    0.0
2019/07/17 06:35:03.000   34.546020166  135.504023502    59.4530   5   7   7.3413  13.5043  23.8793   7.6346  17.3485  11.3115   0.00    0.0
2019/07/17 06:35:04.000   34.546012467  135.504007292    56.0866   5   7   7.3438  13.5032  23.8795   7.6357  17.3476  11.3144   0.00    0.0
2019/07/17 06:35:05.000   34.546011337  135.503997602    55.0810   5   7   7.3463  13.5021  23.8796   7.6367  17.3466  11.3172   0.00    0.0
2019/07/17 06:35:06.000   34.546012433  135.504000772    55.4964   5   7   7.3489  13.5009  23.8797   7.6378  17.3456  11.3201   0.00    0.0
2019/07/17 06:35:08.000   34.546014774  135.504008261    56.6533   5   7   7.3539  13.4987  23.8800   7.6398  17.3436  11.3258   0.00    0.0
2019/07/17 06:35:10.000   34.546007063  135.503999347    53.9043   5   7   7.3589  13.4964  23.8802   7.6418  17.3416  11.3315   0.00    0.0
2019/07/17 06:35:11.000   34.546010541  135.504006394    54.6158   5   7   7.3614  13.4952  23.8803   7.6429  17.3406  11.3343   0.00    0.0
2019/07/17 06:35:13.000   34.546003583  135.504002227    53.0313   5   7   7.3665  13.4929  23.8805   7.6449  17.3386  11.3400   0.00    0.0
2019/07/17 06:35:27.000   34.546010865  135.504013256    55.8695   5   7   7.4017  13.4763  23.8814   7.6587  17.3238  11.3794   0.00    0.0
2019/07/17 06:35:33.000   34.545988720  135.503975330    49.8295   5   7   7.4168  13.4690  23.8815   7.6644  17.3172  11.3962   0.00    0.0
2019/07/17 06:35:41.000   34.545997518  135.503996545    55.0100   5   7   7.4369  13.4589  23.8813   7.6719  17.3080  11.4184   0.00    0.0
2019/07/17 06:35:42.000   34.545994430  135.503996349    54.7191   5   7   7.4394  13.4576  23.8813   7.6728  17.3068  11.4212   0.00    0.0
2019/07/17 06:35:52.000   34.545982411  135.504003158    54.4372   5   7   7.4646  13.4447  23.8806   7.6818  17.2949  11.4488   0.00    0.0
2019/07/17 06:35:53.000   34.545986075  135.504004425    54.9542   5   7   7.4671  13.4433  23.8805   7.6827  17.2936  11.4515   0.00    0.0
2019/07/17 06:35:54.000   34.545991275  135.504005544    55.2290   5   7   7.4697  13.4420  23.8804   7.6836  17.2924  11.4542   0.00    0.0
2019/07/17 06:35:55.000   34.545993991  135.504000008    54.9107   5   7   7.4722  13.4407  23.8802   7.6845  17.2912  11.4570   0.00    0.0
2019/07/17 06:36:27.000   34.546000729  135.504039654    63.0006   5   8   4.6429   6.1945   7.7257  -3.3617   5.4047  -1.1494   0.00    0.0
2019/07/17 06:36:28.000   34.545990809  135.504010258    58.0120   5   7   7.5554  13.3945  23.8737   7.7117  17.2474  11.5460   0.00    0.0
2019/07/17 06:37:06.000   34.546041854  135.503998455    64.4954   5   8   4.6747   6.2173   7.7037  -3.4023   5.3926  -1.0784   0.00    0.0
2019/07/17 06:37:07.000   34.546039799  135.503995210    63.5449   5   8   4.6755   6.2179   7.7031  -3.4034   5.3922  -1.0765   0.00    0.0
2019/07/17 06:37:09.000   34.546040544  135.504016350    66.4472   5   8   4.6771   6.2191   7.7020  -3.4055   5.3916  -1.0727   0.00    0.0
2019/07/17 06:37:10.000   34.546043169  135.504028847    68.5099   5   8   4.6780   6.2197   7.7015  -3.4065   5.3913  -1.0708   0.00    0.0
2019/07/17 06:37:11.000   34.546037216  135.504031127    68.0258   5   8   4.6788   6.2203   7.7009  -3.4076   5.3910  -1.0689   0.00    0.0
2019/07/17 06:37:12.000   34.546031279  135.504028927    66.7119   5   8   4.6796   6.2209   7.7004  -3.4086   5.3907  -1.0670   0.00    0.0
2019/07/17 06:37:13.000   34.546039062  135.504041972    70.0292   5   8   4.6804   6.2215   7.6998  -3.4097   5.3904  -1.0651   0.00    0.0
2019/07/17 06:37:15.000   34.546038889  135.504051641    70.7056   5   8   4.6821   6.2227   7.6987  -3.4118   5.3898  -1.0613   0.00    0.0
2019/07/17 06:37:16.000   34.546028351  135.504023646    65.8878   5   8   4.6829   6.2233   7.6981  -3.4129   5.3894  -1.0594   0.00    0.0
2019/07/17 06:37:18.000   34.546024174  135.504011381    64.1684   5   8   4.6846   6.2245   7.6970  -3.4150   5.3888  -1.0555   0.00    0.0
2019/07/17 06:37:31.000   34.546031496  135.504025056    66.9775   5   8   4.6953   6.2323   7.6899  -3.4288   5.3848  -1.0301   0.00    0.0
2019/07/17 06:37:32.000   34.546036473  135.504038078    69.4638   5   8   4.6962   6.2329   7.6893  -3.4298   5.3845  -1.0281   0.00    0.0
2019/07/17 06:37:34.000   34.546030249  135.504026901    67.2888   5   8   4.6978   6.2341   7.6882  -3.4320   5.3838  -1.0241   0.00    0.0
2019/07/17 06:37:45.000   34.546041378  135.504029359    65.4936   5   8   4.7070   6.2408   7.6822  -3.4437   5.3804  -1.0020   0.00    0.0
2019/07/17 06:37:49.000   34.546037581  135.504044578    66.7191   5   8   4.7103   6.2432   7.6800  -3.4480   5.3791  -0.9938   0.00    0.0
2019/07/17 06:38:03.000   34.546029248  135.504068394    68.1381   5   8   4.7221   6.2518   7.6724  -3.4630   5.3748  -0.9645   0.00    0.0
2019/07/17 06:38:18.000   34.546032233  135.504080029    68.1349   5   9   4.7308   4.5124   5.2496  -3.3572   2.1445   0.4526   0.00    0.0
2019/07/17 06:38:46.000   34.545983726  135.504051090    55.6600   5   9   4.7543   4.5212   5.2401  -3.3828   2.1126   0.6053   0.00    0.0
2019/07/17 06:38:47.000   34.545986370  135.504031662    53.6824   5   9   4.7551   4.5215   5.2398  -3.3837   2.1115   0.6101   0.00    0.0
2019/07/17 06:39:00.000   34.546005933  135.504066542    60.3789   5   9   4.7661   4.5257   5.2355  -3.3956   2.0964   0.6694   0.00    0.0
2019/07/17 06:39:29.000   34.546076809  135.504137209    77.6763   5   8   4.7956   6.3066   7.6273  -3.5576   5.3478  -0.7592   0.00    0.0
2019/07/17 06:39:31.000   34.546080112  135.504136295    78.4162   5   8   4.7973   6.3079   7.6263  -3.5598   5.3471  -0.7538   0.00    0.0
2019/07/17 06:39:43.000   34.546067568  135.504128127    76.9095   5   8   4.8078   6.3158   7.6202  -3.5733   5.3433  -0.7201   0.00    0.0
2019/07/17 06:39:44.000   34.546065582  135.504138035    77.6059   5   8   4.8087   6.3165   7.6197  -3.5744   5.3430  -0.7172   0.00    0.0
2019/07/17 06:39:45.000   34.546065123  135.504137530    77.5564   5   8   4.8095   6.3171   7.6192  -3.5755   5.3427  -0.7143   0.00    0.0
2019/07/17 06:39:47.000   34.546068843  135.504148133    79.4148   5   8   4.8113   6.3184   7.6182  -3.5778   5.3421  -0.7085   0.00    0.0
2019/07/17 06:39:48.000   34.546071698  135.504156244    80.9522   5   8   4.8122   6.3191   7.6177  -3.5789   5.3418  -0.7055   0.00    0.0
2019/07/17 06:39:49.000   34.546070443  135.504149206    79.9840   5   8   4.8130   6.3198   7.6172  -3.5800   5.3414  -0.7026   0.00    0.0
2019/07/17 06:39:50.000   34.546070209  135.504138542    78.2998   5   8   4.8139   6.3204   7.6167  -3.5812   5.3411  -0.6996   0.00    0.0
2019/07/17 06:39:52.000   34.546074144  135.504151307    80.3217   5   8   4.8157   6.3218   7.6157  -3.5834   5.3405  -0.6937   0.00    0.0
2019/07/17 06:39:53.000   34.546068748  135.504134061    77.9598   5   8   4.8165   6.3224   7.6152  -3.5846   5.3402  -0.6907   0.00    0.0
2019/07/17 06:40:27.000   34.546058978  135.504123226    75.8049   5   8   4.8465   6.3454   7.5983  -3.6233   5.3294  -0.5795   0.00    0.0
2019/07/17 06:40:28.000   34.546004108  135.504215634    79.9359   5   9   3.5978   4.5115   7.2720   1.1670   4.3100   2.6112   0.00    0.0
2019/07/17 06:40:29.000   34.546056805  135.504125221    75.5519   5   8   4.8483   6.3467   7.5973  -3.6256   5.3288  -0.5723   0.00    0.0
2019/07/17 06:40:30.000   34.546053429  135.504114058    74.0824   5   8   4.8492   6.3474   7.5968  -3.6268   5.3285  -0.5687   0.00    0.0
2019/07/17 06:40:31.000   34.546060304  135.504132293    76.7017   5   8   4.8501   6.3481   7.5963  -3.6279   5.3281  -0.5650   0.00    0.0
2019/07/17 06:40:32.000   34.546058878  135.504129763    75.9112   5   8   4.8510   6.3488   7.5958  -3.6291   5.3278  -0.5613   0.00    0.0
2019/07/17 06:40:33.000   34.546057886  135.504125352    74.8970   5   8   4.8519   6.3495   7.5954  -3.6302   5.3275  -0.5576   0.00    0.0
2019/07/17 06:40:54.000   34.546075662  135.504196000    85.6964   5   8   4.8706   6.3640   7.5851  -3.6545   5.3208  -0.4727   0.00    0.0
2019/07/17 06:40:55.000   34.546082118  135.504214228    89.1088   5   8   4.8715   6.3647   7.5847  -3.6556   5.3205  -0.4682   0.00    0.0
2019/07/17 06:40:56.000   34.546084824  135.504217138    89.8718   5   8   4.8724   6.3654   7.5842  -3.6568   5.3202  -0.4637   0.00    0.0
2019/07/17 06:40:57.000   34.546081874  135.504208166    88.5013   5   8   4.8733   6.3661   7.5837  -3.6580   5.3199  -0.4592   0.00    0.0
2019/07/17 06:40:58.000   34.546082003  135.504207406    88.6254   5   8   4.8742   6.3668   7.5832  -3.6591   5.3196  -0.4547   0.00    0.0
2019/07/17 06:40:59.000   34.546092287  135.504223820    91.8821   5   8   4.8751   6.3674   7.5827  -3.6603   5.3193  -0.4500   0.00    0.0
2019/07/17 06:41:00.000   34.546092140  135.504218851    91.6285   5   8   4.8760   6.3681   7.5823  -3.6614   5.3189  -0.4454   0.00    0.0
2019/07/17 06:41:01.000   34.546090423  135.504213963    91.1309   5   8   4.8769   6.3688   7.5818  -3.6626   5.3186  -0.4407   0.00    0.0
2019/07/17 06:41:02.000   34.546085854  135.504212045    90.3648   5   8   4.8778   6.3695   7.5813  -3.6638   5.3183  -0.4359   0.00    0.0
2019/07/17 06:41:03.000   34.546082593  135.504208656    89.7224   5   8   4.8787   6.3702   7.5808  -3.6649   5.3180  -0.4311   0.00    0.0
2019/07/17 06:41:04.000   34.546078831  135.504202869    88.6720   5   8   4.8796   6.3709   7.5803  -3.6661   5.3177  -0.4262   0.00    0.0
2019/07/17 06:41:05.000   34.546081050  135.504202246    88.7900   5   8   4.8805   6.3717   7.5799  -3.6673   5.3173  -0.4213   0.00    0.0
2019/07/17 06:41:06.000   34.546076914  135.504192799    87.0479   5   8   4.8814   6.3724   7.5794  -3.6684   5.3170  -0.4163   0.00    0.0
2019/07/17 06:41:07.000   34.546075253  135.504192646    86.8044   5   8   4.8823   6.3731   7.5789  -3.6696   5.3167  -0.4113   0.00    0.0
2019/07/17 06:41:08.000   34.546069053  135.504182574    84.5099   5   8   4.8832   6.3738   7.5784  -3.6708   5.3164  -0.4062   0.00    0.0
2019/07/17 06:41:09.000   34.546069916  135.504189010    85.0281   5   8   4.8841   6.3745   7.5779  -3.6719   5.3161  -0.4010   0.00    0.0
2019/07/17 06:41:10.000   34.546073914  135.504196034    86.2411   5   8   4.8850   6.3752   7.5775  -3.6731   5.3158  -0.3958   0.00    0.0
2019/07/17 06:41:11.000   34.546069511  135.504196449    85.5358   5   8   4.8859   6.3759   7.5770  -3.6743   5.3154  -0.3904   0.00    0.0
2019/07/17 06:41:12.000   34.546076578  135.504202788    87.5848   5   8   4.8868   6.3766   7.5765  -3.6754   5.3151  -0.3851   0.00    0.0
2019/07/17 06:41:13.000   34.546075148  135.504202909    87.0032   5   8   4.8877   6.3773   7.5760  -3.6766   5.3148  -0.3796   0.00    0.0
2019/07/17 06:41:14.000   34.546076574  135.504207219    87.9629   5   8   4.8886   6.3780   7.5756  -3.6778   5.3145  -0.3740   0.00    0.0
2019/07/17 06:41:15.000   34.546074073  135.504207728    88.0288   5   8   4.8895   6.3787   7.5751  -3.6790   5.3142  -0.3684   0.00    0.0
2019/07/17 06:41:16.000   34.546077342  135.504216352    89.3568   5   8   4.8904   6.3794   7.5746  -3.6801   5.3138  -0.3627   0.00    0.0
2019/07/17 06:41:17.000   34.546074791  135.504217662    89.2322   5   8   4.8913   6.3801   7.5741  -3.6813   5.3135  -0.3569   0.00    0.0
2019/07/17 06:41:18.000   34.546070751  135.504214666    88.7097   5   8   4.8922   6.3808   7.5737  -3.6825   5.3132  -0.3510   0.00    0.0
2019/07/17 06:41:19.000   34.546070459  135.504223199    89.8522   5   8   4.8931   6.3815   7.5732  -3.6836   5.3129  -0.3450   0.00    0.0
2019/07/17 06:41:20.000   34.546069515  135.504225144    90.4207   5   8   4.8940   6.3822   7.5727  -3.6848   5.3126  -0.3389   0.00    0.0
2019/07/17 06:41:21.000   34.546072032  135.504229797    91.3398   5   8   4.8949   6.3829   7.5722  -3.6860   5.3122  -0.3326   0.00    0.0
2019/07/17 06:41:22.000   34.546078670  135.504238381    93.5253   5   8   4.8958   6.3836   7.5718  -3.6872   5.3119  -0.3263   0.00    0.0
2019/07/17 06:41:23.000   34.546077357  135.504240047    93.4672   5   8   4.8968   6.3843   7.5713  -3.6883   5.3116  -0.3198   0.00    0.0
2019/07/17 06:41:24.000   34.546072441  135.504239149    92.7573   5   8   4.8977   6.3851   7.5708  -3.6895   5.3113  -0.3132   0.00    0.0
2019/07/17 06:41:25.000   34.546072697  135.504237982    92.5715   5   8   4.8986   6.3858   7.5703  -3.6907   5.3110  -0.3065   0.00    0.0
2019/07/17 06:41:26.000   34.546070045  135.504230508    91.5333   5   8   4.8995   6.3865   7.5699  -3.6919   5.3107  -0.2996   0.00    0.0
2019/07/17 06:41:27.000   34.546080424  135.504250003    95.6975   5   8   4.9004   6.3872   7.5694  -3.6930   5.3103  -0.2925   0.00    0.0
2019/07/17 06:41:28.000   34.546084479  135.504255173    97.3339   5   8   4.9013   6.3879   7.5689  -3.6942   5.3100  -0.2853   0.00    0.0
2019/07/17 06:41:29.000   34.546084283  135.504250118    96.8175   5   8   4.9022   6.3886   7.5685  -3.6954   5.3097  -0.2778   0.00    0.0
2019/07/17 06:41:30.000   34.546083905  135.504245985    96.4690   5   8   4.9031   6.3893   7.5680  -3.6966   5.3094  -0.2702   0.00    0.0
2019/07/17 06:41:31.000   34.546089818  135.504250780    97.7242   5   8   4.9040   6.3900   7.5675  -3.6978   5.3091  -0.2623   0.00    0.0
2019/07/17 06:41:32.000   34.546092083  135.504244904    97.1225   5   8   4.9049   6.3907   7.5670  -3.6989   5.3087  -0.2542   0.00    0.0
2019/07/17 06:41:33.000   34.546099204  135.504255203    99.1537   5   8   4.9058   6.3915   7.5666  -3.7001   5.3084  -0.2459   0.00    0.0
2019/07/17 06:41:34.000   34.546100698  135.504250886    98.8817   5   8   4.9067   6.3922   7.5661  -3.7013   5.3081  -0.2372   0.00    0.0
2019/07/17 06:41:35.000   34.546105827  135.504254549   100.0192   5   8   4.9076   6.3929   7.5656  -3.7025   5.3078  -0.2282   0.00    0.0
2019/07/17 06:41:36.000   34.546107541  135.504259339   100.7815   5   8   4.9085   6.3936   7.5652  -3.7037   5.3075  -0.2189   0.00    0.0
2019/07/17 06:41:37.000   34.546105300  135.504253045    99.8011   5   8   4.9095   6.3943   7.5647  -3.7048   5.3071  -0.2091   0.00    0.0
2019/07/17 06:41:38.000   34.546112663  135.504256392   100.9442   5   8   4.9104   6.3950   7.5642  -3.7060   5.3068  -0.1988   0.00    0.0
2019/07/17 06:41:39.000   34.546111845  135.504253237   100.2143   5   8   4.9113   6.3958   7.5638  -3.7072   5.3065  -0.1880   0.00    0.0
2019/07/17 06:41:40.000   34.546117025  135.504248522   100.1267   5   8   4.9122   6.3965   7.5633  -3.7084   5.3062  -0.1765   0.00    0.0
2019/07/17 06:41:41.000   34.546116257  135.504244051    99.1630   5   8   4.9131   6.3972   7.5628  -3.7096   5.3059  -0.1642   0.00    0.0
2019/07/17 06:41:42.000   34.546124430  135.504255152   101.0234   5   8   4.9140   6.3979   7.5623  -3.7107   5.3055  -0.1509   0.00    0.0
2019/07/17 06:41:43.000   34.546120746  135.504245330    99.4332   5   8   4.9149   6.3986   7.5619  -3.7119   5.3052  -0.1363   0.00    0.0
2019/07/17 06:41:44.000   34.546117321  135.504231042    96.9090   5   8   4.9158   6.3994   7.5614  -3.7131   5.3049  -0.1200   0.00    0.0
2019/07/17 06:41:45.000   34.546117230  135.504231016    96.1108   5   8   4.9167   6.4001   7.5609  -3.7143   5.3046  -0.1011   0.00    0.0
2019/07/17 06:41:46.000   34.546117187  135.504232098    96.3799   5   8   4.9177   6.4008   7.5605  -3.7155   5.3043  -0.0776   0.00    0.0
2019/07/17 06:41:47.000   34.546114396  135.504229873    95.5366   5   8   4.9186   6.4015   7.5600  -3.7167   5.3039  -0.0428   0.00    0.0
2019/07/17 06:41:48.000   34.546120584  135.504231722    96.2012   5   8   4.9195   6.4022   7.5595  -3.7179   5.3036   0.0485   0.00    0.0
2019/07/17 06:41:49.000   34.546125394  135.504235599    97.3244   5   8   4.9204   6.4030   7.5591  -3.7190   5.3033   0.0809   0.00    0.0
2019/07/17 06:41:50.000   34.546127711  135.504241157    98.6244   5   8   4.9213   6.4037   7.5586  -3.7202   5.3030   0.1036   0.00    0.0
2019/07/17 06:41:51.000   34.546031639  135.504054385    63.6924   5   7   8.3532  12.7148  23.4962   7.7641  16.5071  12.2540   0.00    0.0
2019/07/17 06:41:52.000   34.546032590  135.504060427    64.6830   5   7   8.3556  12.7121  23.4941   7.7636  16.5039  12.2557   0.00    0.0
2019/07/17 06:41:53.000   34.546032950  135.504058691    64.5668   5   7   8.3579  12.7094  23.4920   7.7631  16.5007  12.2573   0.00    0.0
2019/07/17 06:41:54.000   34.546036546  135.504055834    64.7129   5   7   8.3603  12.7067  23.4899   7.7625  16.4975  12.2590   0.00    0.0
2019/07/17 06:41:55.000   34.546040699  135.504055731    65.1217   5   7   8.3627  12.7039  23.4878   7.7620  16.4943  12.2606   0.00    0.0
2019/07/17 06:41:56.000   34.546034205  135.504049762    63.6411   5   7   8.3650  12.7012  23.4856   7.7615  16.4911  12.2622   0.00    0.0
2019/07/17 06:41:57.000   34.546030553  135.504058217    63.7754   5   7   8.3674  12.6985  23.4835   7.7609  16.4879  12.2639   0.00    0.0
2019/07/17 06:41:58.000   34.546030974  135.504056037    63.2208   5   7   8.3697  12.6958  23.4814   7.7604  16.4847  12.2655   0.00    0.0
2019/07/17 06:41:59.000   34.546031099  135.504061672    63.9203   5   7   8.3721  12.6930  23.4792   7.7598  16.4815  12.2671   0.00    0.0
2019/07/17 06:42:00.000   34.546031590  135.504056983    63.5980   5   7   8.3744  12.6903  23.4771   7.7592  16.4782  12.2687   0.00    0.0
2019/07/17 06:42:01.000   34.546035988  135.504063761    64.7337   5   7   8.3768  12.6875  23.4749   7.7587  16.4750  12.2703   0.00    0.0
2019/07/17 06:42:02.000   34.546039652  135.504071167    65.9329   5   7   8.3791  12.6848  23.4727   7.7581  16.4717  12.2719   0.00    0.0
2019/07/17 06:42:04.000   34.546034222  135.504065868    64.6083   5   7   8.3838  12.6793  23.4684   7.7570  16.4652  12.2752   0.00    0.0
2019/07/17 06:42:09.000   34.546027372  135.504058227    62.5499   5   7   8.3955  12.6655  23.4575   7.7540  16.4489  12.2831   0.00    0.0
2019/07/17 06:42:10.000   34.546030399  135.504058658    62.7560   5   7   8.3979  12.6627  23.4552   7.7534  16.4456  12.2847   0.00    0.0
2019/07/17 06:42:11.000   34.546031473  135.504055847    63.2041   5   7   8.4002  12.6600  23.4530   7.7528  16.4423  12.2863   0.00    0.0
2019/07/17 06:42:12.000   34.546029880  135.504053685    62.9127   5   7   8.4025  12.6572  23.4508   7.7521  16.4390  12.2878   0.00    0.0
2019/07/17 06:42:13.000   34.546028513  135.504047796    62.4933   5   7   8.4049  12.6544  23.4486   7.7515  16.4357  12.2894   0.00    0.0
2019/07/17 06:42:14.000   34.546030955  135.504052438    63.1538   5   7   8.4072  12.6516  23.4463   7.7509  16.4324  12.2910   0.00    0.0
2019/07/17 06:42:16.000   34.546035994  135.504059135    64.2537   5   7   8.4119  12.6460  23.4419   7.7496  16.4258  12.2941   0.00    0.0
2019/07/17 06:42:17.000   34.546031880  135.504055027    63.3779   5   7   8.4142  12.6432  23.4396   7.7490  16.4224  12.2956   0.00    0.0
2019/07/17 06:42:29.000   34.546049402  135.504087056    69.1994   5   8   5.7112   4.5982   6.1467  -3.6157   1.7696   3.3446   0.00    0.0
2019/07/17 06:43:09.000   34.546124949  135.504023747    73.8590   5   9   4.9850   4.6127   5.1714  -3.6292   1.7677   1.4206   0.00    0.0
2019/07/17 06:43:10.000   34.546124333  135.504020769    73.3623   5   9   4.9859   4.6131   5.1712  -3.6301   1.7662   1.4230   0.00    0.0
2019/07/17 06:43:11.000   34.546114807  135.504016192    70.9459   5   9   4.9868   4.6134   5.1710  -3.6311   1.7647   1.4253   0.00    0.0
2019/07/17 06:43:13.000   34.546116976  135.504024629    71.4329   5   9   4.9886   4.6142   5.1706  -3.6330   1.7617   1.4301   0.00    0.0
2019/07/17 06:43:14.000   34.546111094  135.504018081    69.8180   5   9   4.9895   4.6146   5.1705  -3.6339   1.7602   1.4324   0.00    0.0
2019/07/17 06:43:15.000   34.546114115  135.504015500    69.7917   5   9   4.9904   4.6149   5.1703  -3.6349   1.7586   1.4348   0.00    0.0
2019/07/17 06:43:16.000   34.546114022  135.504016265    69.7791   5   9   4.9913   4.6153   5.1701  -3.6358   1.7571   1.4372   0.00    0.0
2019/07/17 06:43:17.000   34.546138548  135.503979773    68.8810   5  10   3.4298   3.4859   5.1655  -1.5005   1.9302   1.1405   0.00    0.0
2019/07/17 06:43:18.000   34.546131019  135.503985075    69.0182   5  10   3.4299   3.4860   5.1653  -1.5011   1.9299   1.1412   0.00    0.0
2019/07/17 06:43:20.000   34.546170473  135.503954892    70.3037   5  10   3.4301   3.4863   5.1648  -1.5024   1.9293   1.1425   0.00    0.0
2019/07/17 06:43:21.000   34.546201887  135.503924476    70.8250   5  10   3.4302   3.4864   5.1645  -1.5030   1.9290   1.1432   0.00    0.0
2019/07/17 06:43:23.000   34.546124244  135.504013824    71.2175   5  10   3.4305   3.4867   5.1641  -1.5043   1.9285   1.1445   0.00    0.0
2019/07/17 06:43:24.000   34.546152149  135.503996303    72.8228   5  10   3.4306   3.4868   5.1638  -1.5050   1.9282   1.1452   0.00    0.0
2019/07/17 06:43:25.000   34.546138793  135.504023146    74.6288   5  10   3.4307   3.4870   5.1636  -1.5056   1.9279   1.1459   0.00    0.0
2019/07/17 06:43:36.000   34.546148518  135.504088898    83.5103   5   9   5.0096   4.6229   5.1665  -3.6549   1.7263   1.4839   0.00    0.0
2019/07/17 06:44:37.000   34.545968175  135.504022877    54.1299   5   8   5.9197   4.6532   6.1815  -3.8155   1.3382   3.6150   0.00    0.0
2019/07/17 06:44:38.000   34.545962906  135.504021228    53.1180   5   8   5.9214   4.6536   6.1818  -3.8171   1.3342   3.6172   0.00    0.0
2019/07/17 06:44:39.000   34.545966821  135.504022420    53.6605   5   8   5.9231   4.6541   6.1822  -3.8187   1.3301   3.6194   0.00    0.0
2019/07/17 06:44:40.000   34.545938077  135.503963252    42.8450   5   7   8.7335  12.2115  23.0542   7.6055  15.8902  12.4748   0.00    0.0
2019/07/17 06:44:50.000   34.545940959  135.504002255    48.4200   5   7   8.7545  12.1791  23.0224   7.5915  15.8488  12.4840   0.00    0.0
2019/07/17 06:44:51.000   34.545944862  135.504022941    51.4056   5   8   5.9434   4.6598   6.1865  -3.8380   1.2796   3.6453   0.00    0.0
2019/07/17 06:44:52.000   34.545863707  135.504218489    64.2399   5   8   8.4313  10.4614  22.3942   8.5060  14.7597  12.9808   0.00    0.0
2019/07/17 06:44:54.000   34.545806615  135.504138348    46.8969   5   9   3.8898   3.5618   6.0346  -1.1113   2.3907   2.6800   0.00    0.0
2019/07/17 06:44:55.000   34.545935888  135.504035846    51.4789   5   8   5.9502   4.6618   6.1879  -3.8444   1.2622   3.6540   0.00    0.0
2019/07/17 06:44:56.000   34.545939974  135.504046022    53.5001   5   8   5.9520   4.6623   6.1883  -3.8460   1.2579   3.6562   0.00    0.0
2019/07/17 06:44:57.000   34.545945074  135.504052319    55.1020   5   8   5.9537   4.6627   6.1887  -3.8476   1.2535   3.6583   0.00    0.0
2019/07/17 06:44:58.000   34.545942240  135.504048780    54.1996   5   8   5.9554   4.6632   6.1891  -3.8492   1.2490   3.6605   0.00    0.0
2019/07/17 06:44:59.000   34.545947259  135.504053085    55.0204   5   8   5.9571   4.6637   6.1894  -3.8508   1.2446   3.6627   0.00    0.0
2019/07/17 06:45:00.000   34.545950083  135.504066660    57.0029   5   8   5.9588   4.6642   6.1898  -3.8525   1.2402   3.6649   0.00    0.0
2019/07/17 06:45:01.000   34.545951131  135.504074866    57.6706   5   8   5.9605   4.6647   6.1902  -3.8541   1.2357   3.6670   0.00    0.0
2019/07/17 06:45:02.000   34.545954827  135.504075070    58.3028   5   8   5.9622   4.6652   6.1906  -3.8557   1.2312   3.6692   0.00    0.0
2019/07/17 06:45:03.000   34.545962547  135.504081236    59.5583   5   8   5.9639   4.6657   6.1909  -3.8573   1.2267   3.6714   0.00    0.0
2019/07/17 06:45:04.000   34.545960593  135.504085065    59.4302   5   8   5.9656   4.6661   6.1913  -3.8589   1.2221   3.6736   0.00    0.0
2019/07/17 06:45:05.000   34.545963157  135.504094950    61.2335   5   8   5.9673   4.6666   6.1917  -3.8605   1.2176   3.6757   0.00    0.0
2019/07/17 06:45:06.000   34.545895945  135.504156565    59.1447   5   9   3.8910   3.5625   6.0323  -1.1263   2.3843   2.6835   0.00    0.0
2019/07/17 06:45:11.000   34.545814942  135.504205713    53.8495   5   9   3.8915   3.5628   6.0313  -1.1324   2.3817   2.6849   0.00    0.0
2019/07/17 06:45:15.000   34.545954429  135.504045128    52.9658   5   8   5.9845   4.6716   6.1956  -3.8767   1.1709   3.6976   0.00    0.0
2019/07/17 06:45:16.000   34.545951869  135.504029464    51.1548   5   8   5.9863   4.6721   6.1960  -3.8784   1.1661   3.6997   0.00    0.0
2019/07/17 06:45:17.000   34.545949271  135.504009903    48.0097   5   8   5.9880   4.6726   6.1964  -3.8800   1.1612   3.7019   0.00    0.0
2019/07/17 06:45:18.000   34.545946760  135.503996033    46.0195   5   8   5.9897   4.6731   6.1968  -3.8816   1.1564   3.7041   0.00    0.0
2019/07/17 06:45:19.000   34.545946064  135.503990263    45.0487   5   8   5.9914   4.6736   6.1972  -3.8833   1.1515   3.7063   0.00    0.0
2019/07/17 06:45:20.000   34.545943228  135.503986698    44.2884   5   8   5.9932   4.6741   6.1975  -3.8849   1.1467   3.7085   0.00    0.0
2019/07/17 06:45:29.000   34.545965668  135.503968110    46.4236   5   8   6.0088   4.6786   6.2012  -3.8995   1.1016   3.7282   0.00    0.0
2019/07/17 06:45:30.000   34.545975671  135.503984921    49.9597   5   8   6.0105   4.6791   6.2016  -3.9012   1.0964   3.7304   0.00    0.0
2019/07/17 06:45:38.000   34.546007912  135.504003526    58.0192   5   8   6.0244   4.6832   6.2049  -3.9143   1.0543   3.7480   0.00    0.0
2019/07/17 06:45:39.000   34.546013504  135.504011913    59.6142   5   8   6.0262   4.6837   6.2054  -3.9159   1.0489   3.7502   0.00    0.0
2019/07/17 06:45:40.000   34.546011288  135.504024595    60.7043   5   8   6.0279   4.6842   6.2058  -3.9175   1.0434   3.7524   0.00    0.0
2019/07/17 06:45:41.000   34.546006610  135.504028365    60.5256   5   8   6.0297   4.6847   6.2062  -3.9192   1.0380   3.7546   0.00    0.0
2019/07/17 06:45:42.000   34.546001454  135.504019693    58.9865   5   8   6.0314   4.6853   6.2066  -3.9208   1.0325   3.7568   0.00    0.0
2019/07/17 06:45:43.000   34.545994415  135.504017261    58.1193   5   8   6.0332   4.6858   6.2071  -3.9224   1.0269   3.7590   0.00    0.0
2019/07/17 06:45:44.000   34.545994504  135.504020854    58.3225   5   8   6.0349   4.6863   6.2075  -3.9241   1.0213   3.7612   0.00    0.0
2019/07/17 06:45:45.000   34.545913827  135.504090861    56.0552   5   9   3.8948   3.5648   6.0248  -1.1738   2.3634   2.6945   0.00    0.0
2019/07/17 06:45:46.000   34.545856519  135.504144770    54.9091   5   9   3.8949   3.5649   6.0246  -1.1750   2.3629   2.6948   0.00    0.0
2019/07/17 06:45:47.000   34.545993490  135.504042640    60.2638   5   8   6.0402   4.6878   6.2088  -3.9290   1.0044   3.7678   0.00    0.0
2019/07/17 06:45:48.000   34.545991730  135.504036083    59.3625   5   8   6.0419   4.6884   6.2092  -3.9307   0.9987   3.7701   0.00    0.0
2019/07/17 06:45:49.000   34.545990841  135.504034375    59.0229   5   8   6.0437   4.6889   6.2097  -3.9323   0.9930   3.7723   0.00    0.0
2019/07/17 06:45:50.000   34.545986236  135.504031048    58.3995   5   8   6.0454   4.6894   6.2101  -3.9339   0.9872   3.7745   0.00    0.0
2019/07/17 06:45:51.000   34.545983371  135.504029072    57.6335   5   8   6.0472   4.6899   6.2105  -3.9356   0.9814   3.7767   0.00    0.0
2019/07/17 06:45:52.000   34.545988769  135.504030369    58.1924   5   8   6.0490   4.6905   6.2110  -3.9372   0.9755   3.7789   0.00    0.0
2019/07/17 06:45:53.000   34.545992796  135.504036075    59.2547   5   8   6.0507   4.6910   6.2114  -3.9389   0.9696   3.7811   0.00    0.0
2019/07/17 06:45:54.000   34.545996033  135.504037287    60.2304   5   8   6.0525   4.6915   6.2119  -3.9405   0.9637   3.7833   0.00    0.0
2019/07/17 06:45:55.000   34.545992991  135.504035693    59.5435   5   8   6.0542   4.6920   6.2123  -3.9422   0.9577   3.7855   0.00    0.0
2019/07/17 06:45:56.000   34.545993236  135.504037382    59.6354   5   8   6.0560   4.6925   6.2127  -3.9438   0.9516   3.7877   0.00    0.0
2019/07/17 06:45:57.000   34.545993349  135.504041303    59.8410   5   8   6.0578   4.6931   6.2132  -3.9455   0.9456   3.7900   0.00    0.0
2019/07/17 06:45:58.000   34.545999242  135.504047363    61.1877   5   8   6.0595   4.6936   6.2136  -3.9471   0.9395   3.7922   0.00    0.0
2019/07/17 06:45:59.000   34.546001012  135.504047279    61.5155   5   8   6.0613   4.6941   6.2141  -3.9488   0.9333   3.7944   0.00    0.0
2019/07/17 06:46:00.000   34.546003197  135.504054306    62.5745   5   8   6.0630   4.6947   6.2145  -3.9504   0.9271   3.7966   0.00    0.0
2019/07/17 06:46:01.000   34.546009249  135.504063208    64.3750   5   8   6.0648   4.6952   6.2150  -3.9521   0.9209   3.7988   0.00    0.0
2019/07/17 06:46:02.000   34.546008640  135.504061012    63.9517   5   8   6.0666   4.6957   6.2154  -3.9537   0.9146   3.8010   0.00    0.0
2019/07/17 06:46:03.000   34.546005771  135.504056715    62.6858   5   8   6.0683   4.6962   6.2159  -3.9554   0.9082   3.8033   0.00    0.0
2019/07/17 06:46:04.000   34.546006978  135.504054564    62.4895   5   8   6.0701   4.6968   6.2163  -3.9570   0.9019   3.8055   0.00    0.0
2019/07/17 06:46:05.000   34.546009300  135.504053725    62.1125   5   8   6.0719   4.6973   6.2168  -3.9587   0.8954   3.8077   0.00    0.0
2019/07/17 06:46:06.000   34.546015843  135.504057358    63.5973   5   8   6.0736   4.6978   6.2173  -3.9603   0.8889   3.8099   0.00    0.0
2019/07/17 06:46:07.000   34.546015841  135.504055139    63.2518   5   8   6.0754   4.6984   6.2177  -3.9620   0.8824   3.8122   0.00    0.0
2019/07/17 06:46:08.000   34.546015294  135.504044028    61.9658   5   8   6.0772   4.6989   6.2182  -3.9636   0.8758   3.8144   0.00    0.0
2019/07/17 06:46:09.000   34.546016046  135.504043622    61.8451   5   8   6.0790   4.6994   6.2186  -3.9653   0.8691   3.8166   0.00    0.0
2019/07/17 06:46:10.000   34.546019342  135.504053250    63.5255   5   8   6.0807   4.7000   6.2191  -3.9670   0.8624   3.8188   0.00    0.0
2019/07/17 06:46:11.000   34.546020658  135.504047969    62.8685   5   8   6.0825   4.7005   6.2195  -3.9686   0.8557   3.8210   0.00    0.0
2019/07/17 06:46:12.000   34.546020540  135.504048056    63.3735   5   8   6.0843   4.7010   6.2200  -3.9703   0.8488   3.8233   0.00    0.0
2019/07/17 06:46:13.000   34.546022269  135.504045952    63.1429   5   8   6.0861   4.7016   6.2205  -3.9719   0.8420   3.8255   0.00    0.0
2019/07/17 06:46:14.000   34.546022999  135.504046368    63.0714   5   8   6.0878   4.7021   6.2209  -3.9736   0.8350   3.8277   0.00    0.0
2019/07/17 06:46:15.000   34.546021543  135.504046599    62.6115   5   8   6.0896   4.7027   6.2214  -3.9752   0.8280   3.8300   0.00    0.0
2019/07/17 06:46:16.000   34.546019916  135.504052690    63.0385   5   8   6.0914   4.7032   6.2219  -3.9769   0.8209   3.8322   0.00    0.0
2019/07/17 06:46:17.000   34.546023661  135.504052192    63.5307   5   8   6.0932   4.7037   6.2224  -3.9786   0.8138   3.8344   0.00    0.0
2019/07/17 06:46:18.000   34.546020184  135.504046011    62.1882   5   8   6.0950   4.7043   6.2228  -3.9802   0.8066   3.8366   0.00    0.0
2019/07/17 06:46:19.000   34.546024241  135.504045187    62.6154   5   8   6.0967   4.7048   6.2233  -3.9819   0.7993   3.8389   0.00    0.0
2019/07/17 06:46:20.000   34.546020763  135.504041291    61.4543   5   8   6.0985   4.7054   6.2238  -3.9836   0.7920   3.8411   0.00    0.0
2019/07/17 06:46:21.000   34.546023110  135.504037741    61.1938   5   8   6.1003   4.7059   6.2242  -3.9852   0.7845   3.8433   0.00    0.0
2019/07/17 06:46:22.000   34.546020788  135.504034058    60.6626   5   8   6.1021   4.7064   6.2247  -3.9869   0.7770   3.8456   0.00    0.0
2019/07/17 06:46:23.000   34.546023341  135.504038349    61.2803   5   8   6.1039   4.7070   6.2252  -3.9885   0.7695   3.8478   0.00    0.0
2019/07/17 06:46:24.000   34.546024626  135.504028814    60.8108   5   8   6.1057   4.7075   6.2257  -3.9902   0.7618   3.8500   0.00    0.0
2019/07/17 06:46:25.000   34.546016894  135.504019066    58.3422   5   8   6.1075   4.7081   6.2262  -3.9919   0.7541   3.8523   0.00    0.0
2019/07/17 06:46:26.000   34.546008523  135.504011615    56.3214   5   8   6.1092   4.7086   6.2266  -3.9935   0.7462   3.8545   0.00    0.0
2019/07/17 06:46:27.000   34.546014259  135.504012831    57.2480   5   8   6.1110   4.7092   6.2271  -3.9952   0.7383   3.8567   0.00    0.0
2019/07/17 06:46:28.000   34.546014125  135.504008980    56.5584   5   8   6.1128   4.7097   6.2276  -3.9969   0.7303   3.8590   0.00    0.0
2019/07/17 06:46:29.000   34.546010381  135.504006154    55.5391   5   8   6.1146   4.7103   6.2281  -3.9985   0.7222   3.8612   0.00    0.0
2019/07/17 06:46:30.000   34.546014405  135.504012105    57.0356   5   8   6.1164   4.7108   6.2286  -4.0002   0.7140   3.8635   0.00    0.0
2019/07/17 06:46:31.000   34.546015139  135.504014394    57.6864   5   8   6.1182   4.7114   6.2291  -4.0019   0.7057   3.8657   0.00    0.0
2019/07/17 06:46:32.000   34.546014640  135.504017060    58.3235   5   8   6.1200   4.7119   6.2295  -4.0035   0.6973   3.8679   0.00    0.0
2019/07/17 06:46:33.000   34.546014219  135.504014611    58.1878   5   8   6.1218   4.7125   6.2300  -4.0052   0.6888   3.8702   0.00    0.0
2019/07/17 06:46:34.000   34.546016826  135.504017271    58.6444   5   8   6.1236   4.7130   6.2305  -4.0069   0.6802   3.8724   0.00    0.0
2019/07/17 06:46:35.000   34.546020375  135.504023946    59.6665   5   8   6.1254   4.7136   6.2310  -4.0086   0.6715   3.8747   0.00    0.0
2019/07/17 06:46:36.000   34.546027289  135.504039400    62.1367   5   8   6.1272   4.7141   6.2315  -4.0102   0.6626   3.8769   0.00    0.0
2019/07/17 06:46:37.000   34.546026018  135.504034725    61.5720   5   8   6.1290   4.7147   6.2320  -4.0119   0.6536   3.8791   0.00    0.0
2019/07/17 06:46:38.000   34.546032404  135.504040283    63.2550   5   8   6.1308   4.7152   6.2325  -4.0136   0.6445   3.8814   0.00    0.0
2019/07/17 06:46:39.000   34.546029511  135.504037907    62.3444   5   8   6.1326   4.7158   6.2330  -4.0152   0.6353   3.8836   0.00    0.0
2019/07/17 06:46:40.000   34.546039214  135.504054228    65.6902   5   8   6.1344   4.7163   6.2335  -4.0169   0.6259   3.8859   0.00    0.0
2019/07/17 06:46:41.000   34.546048412  135.504061534    67.5224   5   8   6.1362   4.7169   6.2340  -4.0186   0.6163   3.8881   0.00    0.0
2019/07/17 06:46:42.000   34.546048588  135.504060590    66.9723   5   8   6.1380   4.7174   6.2345  -4.0203   0.6066   3.8904   0.00    0.0
2019/07/17 06:46:43.000   34.546045852  135.504066918    67.5717   5   8   6.1398   4.7180   6.2350  -4.0219   0.5967   3.8926   0.00    0.0
2019/07/17 06:46:44.000   34.546049419  135.504070864    68.7905   5   8   6.1416   4.7185   6.2355  -4.0236   0.5867   3.8949   0.00    0.0
2019/07/17 06:46:45.000   34.546052111  135.504071414    69.2016   5   8   6.1434   4.7191   6.2360  -4.0253   0.5765   3.8971   0.00    0.0
2019/07/17 06:46:46.000   34.546056763  135.504073260    69.6912   5   8   6.1452   4.7197   6.2365  -4.0270   0.5661   3.8994   0.00    0.0
2019/07/17 06:46:47.000   34.546059774  135.504077793    70.3328   5   8   6.1470   4.7202   6.2370  -4.0287   0.5555   3.9016   0.00    0.0
2019/07/17 06:46:48.000   34.546067209  135.504083349    71.6157   5   8   6.1488   4.7208   6.2375  -4.0303   0.5446   3.9039   0.00    0.0
2019/07/17 06:46:49.000   34.546070688  135.504091344    72.7305   5   8   6.1506   4.7213   6.2381  -4.0320   0.5336   3.9061   0.00    0.0
2019/07/17 06:46:50.000   34.546078205  135.504096986    74.5548   5   8   6.1524   4.7219   6.2386  -4.0337   0.5223   3.9084   0.00    0.0
2019/07/17 06:46:51.000   34.546077667  135.504090085    73.5713   5   8   6.1542   4.7225   6.2391  -4.0354   0.5107   3.9106   0.00    0.0
2019/07/17 06:46:52.000   34.546080833  135.504104823    75.5602   5   8   6.1560   4.7230   6.2396  -4.0371   0.4989   3.9129   0.00    0.0
2019/07/17 06:46:53.000   34.546078735  135.504102025    74.7634   5   8   6.1579   4.7236   6.2401  -4.0387   0.4867   3.9151   0.00    0.0
2019/07/17 06:46:54.000   34.546081238  135.504100292    74.7996   5   8   6.1597   4.7242   6.2406  -4.0404   0.4743   3.9174   0.00    0.0
2019/07/17 06:46:55.000   34.546087366  135.504103299    76.1079   5   8   6.1615   4.7247   6.2411  -4.0421   0.4615   3.9197   0.00    0.0
2019/07/17 06:46:56.000   34.546084645  135.504111266    76.4930   5   8   6.1633   4.7253   6.2417  -4.0438   0.4483   3.9219   0.00    0.0
2019/07/17 06:46:57.000   34.546080630  135.504102877    75.0307   5   8   6.1651   4.7259   6.2422  -4.0455   0.4347   3.9242   0.00    0.0
2019/07/17 06:46:58.000   34.546079682  135.504101478    74.8036   5   8   6.1669   4.7264   6.2427  -4.0472   0.4207   3.9264   0.00    0.0
2019/07/17 06:46:59.000   34.546084196  135.504113366    76.1526   5   8   6.1687   4.7270   6.2432  -4.0488   0.4062   3.9287   0.00    0.0
2019/07/17 06:47:00.000   34.546082569  135.504107934    75.2099   5   8   6.1706   4.7276   6.2438  -4.0505   0.3911   3.9310   0.00    0.0
2019/07/17 06:47:01.000   34.546076492  135.504094839    72.3075   5   8   6.1724   4.7281   6.2443  -4.0522   0.3754   3.9332   0.00    0.0
2019/07/17 06:47:02.000   34.546077636  135.504095537    72.6416   5   8   6.1742   4.7287   6.2448  -4.0539   0.3590   3.9355   0.00    0.0
2019/07/17 06:47:03.000   34.546078136  135.504096327    73.0885   5   8   6.1760   4.7293   6.2453  -4.0556   0.3419   3.9377   0.00    0.0
2019/07/17 06:47:04.000   34.546077624  135.504095441    72.6622   5   8   6.1778   4.7298   6.2459  -4.0573   0.3238   3.9400   0.00    0.0
2019/07/17 06:47:05.000   34.546076896  135.504103107    73.1242   5   8   6.1797   4.7304   6.2464  -4.0590   0.3046   3.9423   0.00    0.0
2019/07/17 06:47:06.000   34.546074001  135.504094844    71.4463   5   8   6.1815   4.7310   6.2469  -4.0607   0.2841   3.9445   0.00    0.0
2019/07/17 06:47:07.000   34.546072519  135.504095721    71.6457   5   8   6.1833   4.7316   6.2475  -4.0623   0.2620   3.9468   0.00    0.0
2019/07/17 06:47:08.000   34.546072757  135.504098192    71.6965   5   8   6.1851   4.7321   6.2480  -4.0640   0.2378   3.9491   0.00    0.0
2019/07/17 06:47:09.000   34.546064429  135.504094682    69.8487   5   8   6.1870   4.7327   6.2485  -4.0657   0.2108   3.9513   0.00    0.0
2019/07/17 06:47:10.000   34.546057452  135.504085547    67.8602   5   8   6.1888   4.7333   6.2491  -4.0674   0.1798   3.9536   0.00    0.0
2019/07/17 06:47:11.000   34.546051504  135.504072481    65.1333   5   8   6.1906   4.7339   6.2496  -4.0691   0.1422   3.9559   0.00    0.0
2019/07/17 06:47:12.000   34.546048845  135.504064411    63.9021   5   8   6.1925   4.7344   6.2501  -4.0708   0.0900   3.9581   0.00    0.0
2019/07/17 06:47:13.000   34.546045095  135.504057441    62.3186   5   8   6.1943   4.7350   6.2507  -4.0725  -0.0634   3.9604   0.00    0.0
2019/07/17 06:47:14.000   34.546043153  135.504054577    61.8398   5   8   6.1961   4.7356   6.2512  -4.0742  -0.1271   3.9627   0.00    0.0
2019/07/17 06:47:15.000   34.546039527  135.504046967    60.4248   5   8   6.1979   4.7362   6.2518  -4.0759  -0.1682   3.9649   0.00    0.0
2019/07/17 06:47:16.000   34.546038520  135.504044580    60.1099   5   8   6.1998   4.7367   6.2523  -4.0776  -0.2011   3.9672   0.00    0.0
2019/07/17 06:47:17.000   34.546032547  135.504030935    57.5851   5   8   6.2016   4.7373   6.2529  -4.0793  -0.2294   3.9695   0.00    0.0
2019/07/17 06:47:18.000   34.546035306  135.504030075    58.0477   5   8   6.2035   4.7379   6.2534  -4.0810  -0.2545   3.9718   0.00    0.0
2019/07/17 06:47:19.000   34.546039990  135.504029916    58.8851   5   8   6.2053   4.7385   6.2540  -4.0827  -0.2774   3.9740   0.00    0.0
2019/07/17 06:47:20.000   34.546045951  135.504033737    60.4948   5   8   6.2071   4.7391   6.2545  -4.0844  -0.2986   3.9763   0.00    0.0
2019/07/17 06:47:21.000   34.546044925  135.504036305    60.8500   5   8   6.2090   4.7397   6.2551  -4.0861  -0.3183   3.9786   0.00    0.0
2019/07/17 06:47:22.000   34.546047334  135.504030024    60.4993   5   8   6.2108   4.7402   6.2556  -4.0878  -0.3369   3.9809   0.00    0.0
2019/07/17 06:47:23.000   34.546040993  135.504014061    57.7547   5   8   6.2126   4.7408   6.2562  -4.0895  -0.3546   3.9831   0.00    0.0
2019/07/17 06:47:24.000   34.546042365  135.504017199    58.3408   5   8   6.2145   4.7414   6.2567  -4.0912  -0.3714   3.9854   0.00    0.0
2019/07/17 06:47:25.000   34.546043540  135.504023123    59.7042   5   8   6.2163   4.7420   6.2573  -4.0929  -0.3875   3.9877   0.00    0.0
2019/07/17 06:47:26.000   34.546005941  135.503949831    45.7724   5   7   9.0572  11.6448  22.4457   7.2988  15.1357  12.5647   0.00    0.0
2019/07/17 06:47:27.000   34.546006201  135.503941560    44.8297   5   7   9.0590  11.6412  22.4415   7.2964  15.1307  12.5648   0.00    0.0
2019/07/17 06:47:28.000   34.546005858  135.503942114    44.6003   5   7   9.0607  11.6377  22.4373   7.2941  15.1257  12.5650   0.00    0.0
2019/07/17 06:47:29.000   34.546007998  135.503943229    45.1546   5   7   9.0625  11.6341  22.4331   7.2917  15.1208  12.5651   0.00    0.0
2019/07/17 06:47:30.000   34.546004246  135.503939149    44.4091   5   7   9.0642  11.6305  22.4288   7.2894  15.1158  12.5652   0.00    0.0
2019/07/17 06:47:31.000   34.546002775  135.503939109    44.1848   5   7   9.0660  11.6270  22.4246   7.2870  15.1108  12.5653   0.00    0.0
2019/07/17 06:47:32.000   34.546006266  135.503943676    44.9434   5   7   9.0677  11.6234  22.4204   7.2846  15.1058  12.5654   0.00    0.0
2019/07/17 06:47:33.000   34.545998438  135.503939666    43.7996   5   7   9.0695  11.6198  22.4162   7.2823  15.1008  12.5655   0.00    0.0
2019/07/17 06:47:34.000   34.545998211  135.503947238    44.3792   5   7   9.0712  11.6162  22.4119   7.2799  15.0958  12.5656   0.00    0.0
2019/07/17 06:47:35.000   34.545995289  135.503939055    43.4640   5   7   9.0730  11.6126  22.4077   7.2775  15.0908  12.5656   0.00    0.0
2019/07/17 06:47:36.000   34.545988625  135.503935193    42.1003   5   7   9.0747  11.6091  22.4034   7.2751  15.0858  12.5657   0.00    0.0
2019/07/17 06:47:37.000   34.545989569  135.503938973    42.4235   5   7   9.0764  11.6055  22.3992   7.2727  15.0808  12.5658   0.00    0.0
2019/07/17 06:47:38.000   34.545985549  135.503943407    42.2261   5   7   9.0782  11.6019  22.3949   7.2703  15.0758  12.5659   0.00    0.0
2019/07/17 06:47:39.000   34.545981788  135.503943042    41.6000   5   7   9.0799  11.5983  22.3907   7.2679  15.0708  12.5659   0.00    0.0
2019/07/17 06:47:40.000   34.545982655  135.503945195    42.2390   5   7   9.0816  11.5947  22.3864   7.2655  15.0657  12.5660   0.00    0.0
2019/07/17 06:47:41.000   34.545978757  135.503941929    41.2627   5   7   9.0834  11.5911  22.3821   7.2630  15.0607  12.5660   0.00    0.0
2019/07/17 06:47:42.000   34.545980602  135.503944900    42.0096   5   7   9.0851  11.5875  22.3778   7.2606  15.0557  12.5661   0.00    0.0
2019/07/17 06:47:43.000   34.546001334  135.503987114    49.9563   5   8   6.2496   4.7526   6.2675  -4.1236  -0.6097   4.0288   0.00    0.0
2019/07/17 06:47:44.000   34.545977478  135.503937825    41.6420   5   7   9.0885  11.5803  22.3692   7.2557  15.0456  12.5661   0.00    0.0
2019/07/17 06:47:45.000   34.545974072  135.503937724    41.4990   5   7   9.0902  11.5768  22.3649   7.2533  15.0405  12.5662   0.00    0.0
2019/07/17 06:47:46.000   34.545972752  135.503943398    41.9992   5   7   9.0920  11.5732  22.3606   7.2508  15.0355  12.5662   0.00    0.0
2019/07/17 06:47:47.000   34.545994893  135.503983513    49.5931   5   8   6.2570   4.7550   6.2698  -4.1304  -0.6491   4.0380   0.00    0.0
2019/07/17 06:47:48.000   34.546004894  135.504010184    54.2685   5   8   6.2589   4.7556   6.2704  -4.1321  -0.6585   4.0403   0.00    0.0
2019/07/17 06:47:49.000   34.546022832  135.504032071    59.5107   5   8   6.2607   4.7562   6.2710  -4.1338  -0.6679   4.0426   0.00    0.0
2019/07/17 06:47:50.000   34.546038129  135.504060507    65.1384   5   8   6.2626   4.7568   6.2716  -4.1356  -0.6771   4.0449   0.00    0.0
2019/07/17 06:47:51.000   34.546048364  135.504075807    68.5036   5   8   6.2645   4.7574   6.2722  -4.1373  -0.6862   4.0472   0.00    0.0
2019/07/17 06:47:52.000   34.546049607  135.504087201    70.2195   5   8   6.2663   4.7581   6.2728  -4.1390  -0.6953   4.0495   0.00    0.0
2019/07/17 06:47:57.000   34.546062070  135.504100765    74.1323   5   8   6.2756   4.7611   6.2758  -4.1476  -0.7388   4.0610   0.00    0.0
2019/07/17 06:47:58.000   34.546061441  135.504097001    73.7669   5   8   6.2775   4.7617   6.2763  -4.1493  -0.7472   4.0633   0.00    0.0
2019/07/17 06:47:59.000   34.546056796  135.504091648    72.6396   5   8   6.2794   4.7623   6.2769  -4.1510  -0.7555   4.0656   0.00    0.0
2019/07/17 06:48:00.000   34.546054774  135.504086186    71.8872   5   8   6.2813   4.7629   6.2776  -4.1527  -0.7637   4.0679   0.00    0.0
2019/07/17 06:48:01.000   34.546057779  135.504091121    72.7480   5   8   6.2831   4.7635   6.2782  -4.1544  -0.7719   4.0702   0.00    0.0
2019/07/17 06:48:02.000   34.546059729  135.504096739    73.6349   5   8   6.2850   4.7641   6.2788  -4.1562  -0.7800   4.0725   0.00    0.0
2019/07/17 06:48:03.000   34.546064683  135.504098926    74.5364   5   8   6.2869   4.7647   6.2794  -4.1579  -0.7880   4.0748   0.00    0.0
2019/07/17 06:48:04.000   34.546068581  135.504109197    76.3185   5   8   6.2887   4.7653   6.2800  -4.1596  -0.7959   4.0771   0.00    0.0
2019/07/17 06:48:05.000   34.546069316  135.504104964    75.9938   5   8   6.2906   4.7660   6.2806  -4.1613  -0.8038   4.0794   0.00    0.0
2019/07/17 06:48:06.000   34.546070215  135.504109345    76.1426   5   8   6.2925   4.7666   6.2812  -4.1631  -0.8115   4.0817   0.00    0.0
2019/07/17 06:48:07.000   34.546076943  135.504115957    77.6920   5   8   6.2944   4.7672   6.2818  -4.1648  -0.8193   4.0840   0.00    0.0
2019/07/17 06:48:08.000   34.546079280  135.504111598    77.2622   5   8   6.2962   4.7678   6.2824  -4.1665  -0.8269   4.0863   0.00    0.0
2019/07/17 06:48:09.000   34.546069817  135.504107285    75.4312   5   8   6.2981   4.7684   6.2830  -4.1682  -0.8345   4.0886   0.00    0.0
2019/07/17 06:48:10.000   34.546069064  135.504101622    74.5965   5   8   6.3000   4.7690   6.2836  -4.1700  -0.8420   4.0909   0.00    0.0
2019/07/17 06:48:11.000   34.546062382  135.504090023    71.9440   5   8   6.3019   4.7696   6.2843  -4.1717  -0.8495   4.0932   0.00    0.0
2019/07/17 06:48:12.000   34.546062597  135.504084904    71.2531   5   8   6.3038   4.7703   6.2849  -4.1734  -0.8569   4.0955   0.00    0.0
2019/07/17 06:48:13.000   34.546062783  135.504079966    70.7428   5   8   6.3056   4.7709   6.2855  -4.1751  -0.8642   4.0979   0.00    0.0
2019/07/17 06:48:14.000   34.546067656  135.504082317    71.5766   5   8   6.3075   4.7715   6.2861  -4.1769  -0.8715   4.1002   0.00    0.0
2019/07/17 06:48:15.000   34.546070484  135.504082303    71.5024   5   8   6.3094   4.7721   6.2867  -4.1786  -0.8787   4.1025   0.00    0.0
2019/07/17 06:48:16.000   34.546070900  135.504079666    71.4830   5   8   6.3113   4.7727   6.2873  -4.1803  -0.8859   4.1048   0.00    0.0
2019/07/17 06:48:17.000   34.546068515  135.504081511    71.3688   5   8   6.3132   4.7734   6.2880  -4.1820  -0.8930   4.1071   0.00    0.0
2019/07/17 06:48:18.000   34.546072271  135.504083416    72.1038   5   8   6.3151   4.7740   6.2886  -4.1838  -0.9001   4.1094   0.00    0.0
2019/07/17 06:48:19.000   34.546071487  135.504075276    70.8159   5   8   6.3169   4.7746   6.2892  -4.1855  -0.9071   4.1117   0.00    0.0
2019/07/17 06:48:20.000   34.546071111  135.504080489    71.3545   5   8   6.3188   4.7752   6.2899  -4.1872  -0.9141   4.1141   0.00    0.0
2019/07/17 06:48:21.000   34.546073070  135.504078453    71.5037   5   8   6.3207   4.7759   6.2905  -4.1890  -0.9210   4.1164   0.00    0.0
2019/07/17 06:48:22.000   34.546070963  135.504067843    70.0972   5   8   6.3226   4.7765   6.2911  -4.1907  -0.9279   4.1187   0.00    0.0
2019/07/17 06:48:23.000   34.546062113  135.504062979    68.1191   5   8   6.3245   4.7771   6.2917  -4.1924  -0.9347   4.1210   0.00    0.0
2019/07/17 06:48:24.000   34.546058287  135.504061153    67.3203   5   8   6.3264   4.7777   6.2924  -4.1942  -0.9415   4.1233   0.00    0.0
2019/07/17 06:48:25.000   34.546049346  135.504047537    64.7406   5   8   6.3283   4.7784   6.2930  -4.1959  -0.9483   4.1256   0.00    0.0
2019/07/17 06:48:26.000   34.546043840  135.504044280    63.6810   5   8   6.3302   4.7790   6.2936  -4.1976  -0.9549   4.1280   0.00    0.0
2019/07/17 06:48:27.000   34.546042926  135.504050213    64.5637   5   8   6.3321   4.7796   6.2943  -4.1994  -0.9616   4.1303   0.00    0.0
2019/07/17 06:48:28.000   34.546035451  135.504040035    62.1745   5   8   6.3340   4.7802   6.2949  -4.2011  -0.9682   4.1326   0.00    0.0
2019/07/17 06:48:29.000   34.546027119  135.504032273    59.8134   5   8   6.3359   4.7809   6.2956  -4.2028  -0.9748   4.1349   0.00    0.0
2019/07/17 06:48:30.000   34.546029417  135.504037251    60.7561   5   8   6.3378   4.7815   6.2962  -4.2046  -0.9813   4.1373   0.00    0.0
2019/07/17 06:48:31.000   34.546024861  135.504038253    60.4547   5   8   6.3396   4.7821   6.2968  -4.2063  -0.9878   4.1396   0.00    0.0
2019/07/17 06:48:32.000   34.546021011  135.504041364    60.3461   5   8   6.3415   4.7828   6.2975  -4.2081  -0.9943   4.1419   0.00    0.0
2019/07/17 06:48:33.000   34.546022073  135.504047241    61.4660   5   8   6.3434   4.7834   6.2981  -4.2098  -1.0007   4.1442   0.00    0.0
2019/07/17 06:48:34.000   34.546014515  135.504042710    59.9918   5   8   6.3453   4.7840   6.2988  -4.2115  -1.0071   4.1466   0.00    0.0
2019/07/17 06:48:35.000   34.546014377  135.504041115    59.7305   5   8   6.3472   4.7847   6.2994  -4.2133  -1.0134   4.1489   0.00    0.0
2019/07/17 06:48:36.000   34.546012787  135.504053468    60.3151   5   8   6.3491   4.7853   6.3001  -4.2150  -1.0197   4.1512   0.00    0.0
2019/07/17 06:48:37.000   34.546006373  135.504046481    58.9351   5   8   6.3510   4.7859   6.3007  -4.2168  -1.0260   4.1535   0.00    0.0
2019/07/17 06:48:38.000   34.546003312  135.504043658    58.2229   5   8   6.3529   4.7866   6.3014  -4.2185  -1.0323   4.1559   0.00    0.0
2019/07/17 06:48:39.000   34.545999348  135.504048879    58.0061   5   8   6.3548   4.7872   6.3020  -4.2202  -1.0385   4.1582   0.00    0.0
2019/07/17 06:48:40.000   34.546003362  135.504046346    57.9227   5   8   6.3567   4.7878   6.3027  -4.2220  -1.0447   4.1605   0.00    0.0
2019/07/17 06:48:41.000   34.545999139  135.504044586    57.2495   5   8   6.3587   4.7885   6.3033  -4.2237  -1.0508   4.1629   0.00    0.0
2019/07/17 06:48:42.000   34.546001060  135.504048672    58.2744   5   8   6.3606   4.7891   6.3040  -4.2255  -1.0569   4.1652   0.00    0.0
2019/07/17 06:48:43.000   34.546000580  135.504045590    57.7566   5   8   6.3625   4.7897   6.3046  -4.2272  -1.0630   4.1675   0.00    0.0
2019/07/17 06:48:44.000   34.545996501  135.504045246    56.6677   5   8   6.3644   4.7904   6.3053  -4.2289  -1.0691   4.1699   0.00    0.0
2019/07/17 06:48:45.000   34.545998305  135.504046494    56.9625   5   8   6.3663   4.7910   6.3060  -4.2307  -1.0751   4.1722   0.00    0.0
2019/07/17 06:48:46.000   34.545993679  135.504046811    56.2811   5   8   6.3682   4.7917   6.3066  -4.2324  -1.0811   4.1745   0.00    0.0
